City_ID,City,Country,Lat,Lng,Max Temp,Humidity,Cloudiness,Wind Speed,Current Description
0,Hobart,AU,-42.88,147.33,69.26,59,75,3.0,broken clouds
1,Qaanaaq,GL,77.48,-69.36,20.95,84,100,5.32,overcast clouds
2,Port Elizabeth,ZA,-33.92,25.57,64.09,100,40,12.66,scattered clouds
3,Avarua,CK,-21.21,-159.78,82.45,78,20,6.91,light rain
4,Thompson,CA,55.74,-97.86,-20.04,76,1,8.05,clear sky
5,Port Lincoln,AU,-34.73,135.87,66.47,55,12,1.07,few clouds
6,Vaini,TO,-21.20,-175.20,84.36,84,20,12.66,few clouds
7,Cape Town,ZA,-33.93,18.42,61.21,88,75,1.01,light intensity drizzle
8,Los Altos,US,37.39,-122.11,64.33,73,1,1.01,haze
9,Ushuaia,AR,-54.80,-68.30,46.06,61,75,27.63,broken clouds
10,Albany,US,42.60,-73.97,38.57,60,98,4.47,overcast clouds
11,Tuktoyaktuk,CA,69.45,-133.04,-16.6,69,1,9.22,clear sky
12,Paamiut,GL,61.99,-49.67,25.5,63,100,19.73,light snow
13,East London,ZA,-33.02,27.91,68.54,92,100,2.75,overcast clouds
14,Rikitea,PF,-23.12,-134.97,76.69,73,87,6.26,overcast clouds
15,Cherskiy,RU,68.75,161.30,-37.68,97,90,3.13,overcast clouds
16,Levelland,US,33.59,-102.38,67.05,17,0,12.8,clear sky
17,Hermanus,ZA,-34.42,19.23,60.91,95,100,11.01,light rain
18,Puerto Ayora,EC,-0.74,-90.35,68.49,87,42,10.22,scattered clouds
19,Mitu,CO,1.20,-70.17,74.08,91,77,1.21,broken clouds
20,Saskylakh,RU,71.92,114.08,-34.64,99,99,4.79,overcast clouds
21,Tasiilaq,GL,65.61,-37.64,29.34,92,97,20.2,light snow
22,Port Hawkesbury,CA,45.62,-61.35,30.18,76,64,5.99,broken clouds
23,San Quintin,MX,30.48,-115.95,62.26,77,0,13.27,clear sky
24,Silver City,US,32.77,-108.28,57.63,29,75,7.0,broken clouds
25,Bluff,NZ,-46.60,168.33,55.8,52,57,17.31,broken clouds
26,Te Anau,NZ,-45.42,167.72,50.72,67,80,5.77,broken clouds
27,Gat,IL,31.61,34.76,61.39,50,24,8.14,few clouds
28,Yellowknife,CA,62.46,-114.35,-19.59,82,1,4.61,clear sky
29,Chapais,CA,49.78,-74.85,-0.62,98,95,4.05,overcast clouds
30,Kapaa,US,22.08,-159.32,79.12,67,40,3.0,light rain
31,Kodiak,US,57.79,-152.41,33.31,80,90,12.66,light snow
32,Rajmahal,IN,25.05,87.83,66.13,75,80,4.83,broken clouds
33,Busselton,AU,-33.65,115.33,62.04,63,72,17.67,broken clouds
34,Barrow,US,71.29,-156.79,12.22,79,90,17.27,overcast clouds
35,Punta Arenas,CL,-53.15,-70.92,51.91,46,75,16.11,broken clouds
36,Sitka,US,57.05,-135.33,35.49,75,90,4.61,light snow
37,Caravelas,BR,-17.71,-39.25,74.17,88,0,4.94,clear sky
38,Castro,BR,-24.79,-50.01,63.75,86,98,0.72,overcast clouds
39,Nikolskoye,RU,59.70,30.79,-1.61,97,8,4.45,clear sky
40,Iquitos,PE,-3.75,-73.25,77.04,94,75,1.14,broken clouds
41,Guerrero Negro,MX,27.98,-114.06,65.28,75,1,16.73,clear sky
42,Kaitangata,NZ,-46.28,169.85,54.93,56,89,7.9,overcast clouds
43,Presidente Dutra,BR,-5.29,-44.49,75.74,88,57,2.21,broken clouds
44,Port Alfred,ZA,-33.59,26.89,67.95,94,77,12.73,broken clouds
45,Klaksvik,FO,62.23,-6.59,38.32,65,100,21.63,overcast clouds
46,Valparaiso,CL,-33.04,-71.63,63.48,87,90,3.44,mist
47,Pisco,PE,-13.70,-76.22,67.01,88,75,16.11,broken clouds
48,Geraldton,AU,-28.77,114.60,81.12,34,0,18.41,clear sky
49,Longyearbyen,SJ,78.22,15.64,17.44,73,75,9.22,light snow
50,Ialibu,PG,-6.28,143.99,66.83,55,100,5.48,overcast clouds
51,Pacific Grove,US,36.62,-121.92,65.8,85,40,1.01,scattered clouds
52,Cidreira,BR,-30.18,-50.21,69.48,87,72,13.56,broken clouds
53,Iqaluit,CA,63.75,-68.51,10.13,72,90,17.0,light snow
54,Fairbanks,US,64.84,-147.72,11.91,78,90,0.0,overcast clouds
55,Bozuyuk,TR,39.91,30.04,46.69,70,39,12.37,scattered clouds
56,Hami,CN,42.80,93.45,28.47,53,81,2.8,broken clouds
57,Saint-Philippe,RE,-21.36,55.77,76.55,78,37,11.01,scattered clouds
58,Galle,LK,6.04,80.22,77.02,85,39,2.8,scattered clouds
59,Chokurdakh,RU,70.63,147.92,-42.57,99,53,6.06,broken clouds
60,Talnakh,RU,69.49,88.40,-16.8,99,100,13.53,snow
61,Cayenne,GF,4.93,-52.33,78.1,90,90,1.99,overcast clouds
62,Kawalu,ID,-7.38,108.21,76.23,86,100,1.5,light rain
63,Havelock,US,34.88,-76.90,60.78,85,47,1.01,scattered clouds
64,Carnarvon,AU,-24.87,113.63,77.07,69,0,19.57,clear sky
65,Ribeira Grande,PT,38.52,-28.70,64.02,72,96,9.13,overcast clouds
66,Verkhnyaya Inta,RU,65.98,60.31,0.5,96,99,10.8,light snow
67,Ciudad Del Maiz,MX,22.40,-99.60,61.88,87,100,3.18,overcast clouds
68,Vienna,AT,48.21,16.37,39.07,88,75,1.99,light rain
69,Atuona,PF,-9.80,-139.03,78.84,74,8,18.32,clear sky
70,Srisailam,IN,16.08,78.87,67.28,72,24,2.71,few clouds
71,Juneau,US,58.30,-134.42,28.45,93,90,5.75,light snow
72,Mataura,NZ,-46.19,168.86,55.47,44,87,7.25,overcast clouds
73,Lakes Entrance,AU,-37.88,147.98,78.17,51,100,9.28,overcast clouds
74,Pangai,TO,-19.80,-174.35,82.51,65,40,18.41,scattered clouds
75,Labuhan,ID,-6.88,112.21,80.04,77,100,6.98,moderate rain
76,New Norfolk,AU,-42.78,147.06,67.91,51,89,8.34,overcast clouds
77,Husavik,IS,66.04,-17.34,42.71,80,100,25.81,moderate rain
78,Severo-Kurilsk,RU,50.68,156.12,32.56,81,98,16.51,light snow
79,Nushki,PK,29.55,66.02,44.96,42,0,2.33,clear sky
80,Whyalla,AU,-33.03,137.58,69.69,64,90,8.05,overcast clouds
81,Dikson,RU,73.51,80.55,-6.56,96,100,9.71,overcast clouds
82,Salalah,OM,17.02,54.09,75.29,33,0,11.5,clear sky
83,Sola,VU,-13.88,167.55,84.87,79,75,3.44,broken clouds
84,Lavrentiya,RU,65.58,-171.00,29.23,97,100,18.39,snow
85,Georgetown,MY,5.41,100.34,78.89,81,20,1.99,few clouds
86,Mahebourg,MU,-20.41,57.70,77.29,78,40,6.91,light rain
87,Trebnje,SI,45.90,15.02,36.88,99,100,2.04,overcast clouds
88,Arraial Do Cabo,BR,-22.97,-42.03,74.37,87,81,20.67,broken clouds
89,Talara,PE,-4.58,-81.27,66.43,88,100,16.02,overcast clouds
90,Norman Wells,CA,65.28,-126.83,-27.36,62,75,0.0,broken clouds
91,Kaya,BF,13.09,-1.08,74.73,13,2,7.87,clear sky
92,Butaritari,KI,3.07,172.79,80.98,81,94,12.75,moderate rain
93,Rocha,UY,-34.48,-54.33,59.77,97,29,3.27,scattered clouds
94,Enterprise,US,36.03,-115.24,73.94,15,20,5.99,few clouds
95,Kalemie,CD,-5.95,29.19,72.1,82,100,3.2,overcast clouds
96,Chaiyaphum,TH,15.75,102.00,68.81,63,42,9.42,scattered clouds
97,Tiksi,RU,71.69,128.87,-15.97,94,100,6.71,overcast clouds
98,Chuka,KE,-0.33,37.65,59.27,92,74,2.55,broken clouds
99,Auki,SB,-8.77,160.70,79.11,89,100,12.64,overcast clouds
100,Rabo De Peixe,PT,37.80,-25.58,62.28,96,75,4.61,broken clouds
101,Vesyegonsk,RU,58.66,37.26,0.34,93,89,5.53,overcast clouds
102,Octeville,FR,49.63,-1.64,46.92,76,90,10.36,overcast clouds
103,Hodal,IN,27.90,77.37,70.68,56,84,3.6,broken clouds
104,Tazmalt,DZ,36.39,4.40,44.83,76,38,15.52,scattered clouds
105,Anshun,CN,26.25,105.93,48.9,79,100,1.23,overcast clouds
106,Upernavik,GL,72.79,-56.15,25.9,75,100,5.88,overcast clouds
107,Rio Gallegos,AR,-51.62,-69.22,57.25,33,0,12.66,clear sky
108,Giddalur,IN,15.35,78.92,70.36,78,5,2.35,clear sky
109,Vila,PT,42.03,-8.16,42.33,84,81,2.28,broken clouds
110,Remiremont,FR,48.02,6.59,33.08,99,91,1.39,overcast clouds
111,Yarada,IN,17.65,83.27,77.32,78,75,2.3,mist
112,Viedma,AR,-40.81,-63.00,67.39,34,0,14.54,clear sky
113,Berlevag,NO,70.86,29.09,22.48,92,88,27.72,light snow
114,Pundaguitan,PH,6.37,126.17,80.96,78,90,11.48,overcast clouds
115,Chuy,UY,-33.70,-53.46,63.88,88,100,6.31,overcast clouds
116,Araouane,ML,18.90,-3.53,61.23,15,91,9.98,overcast clouds
117,Hervey Bay,AU,-25.30,152.85,85.03,85,24,3.0,light rain
118,Airai,TL,-8.93,125.41,68.88,77,97,1.01,overcast clouds
119,Victoria,HK,22.29,114.16,64.33,55,89,1.01,overcast clouds
120,Bredasdorp,ZA,-34.53,20.04,59.29,94,100,10.0,moderate rain
121,Bengkulu,ID,-3.80,102.27,78.15,84,100,7.16,overcast clouds
122,Amalner,IN,21.05,75.07,68.77,58,4,3.69,clear sky
123,Ostrovnoy,RU,68.05,39.51,10.45,74,88,23.42,overcast clouds
124,Katsuura,JP,35.13,140.30,51.19,73,100,9.73,overcast clouds
125,Pingliang,CN,35.54,106.69,34.9,34,3,2.39,clear sky
126,Beringovskiy,RU,63.05,179.32,7.23,81,100,34.34,overcast clouds
127,Yar-Sale,RU,66.83,70.83,-14.26,91,51,14.81,broken clouds
128,Grindavik,IS,63.84,-22.43,37.87,93,90,13.8,overcast clouds
129,Malvern,US,34.36,-92.81,70.95,83,89,11.21,overcast clouds
130,Merritt,CA,50.11,-120.79,23.83,77,100,1.52,overcast clouds
131,Belmonte,BR,-15.86,-38.88,75.7,84,0,4.54,clear sky
132,Sri Aman,MY,1.24,111.46,75.25,94,40,0.0,scattered clouds
133,Provideniya,RU,64.38,-173.30,28.51,86,90,8.95,snow
134,Bay Saint Louis,US,30.31,-89.33,69.89,91,1,8.05,clear sky
135,Chicla,PE,-11.71,-76.27,42.98,96,100,1.79,overcast clouds
136,Samarai,PG,-10.62,150.67,84.07,72,100,9.98,overcast clouds
137,Bar Harbor,US,44.39,-68.20,31.91,64,1,3.44,clear sky
138,Chandia,IN,23.65,80.70,58.08,77,0,3.18,clear sky
139,Niamey,NE,13.51,2.11,75.49,17,3,4.61,clear sky
140,Fortuna,US,40.60,-124.16,53.42,73,90,0.0,overcast clouds
141,Vostok,RU,46.49,135.88,29.55,92,100,6.73,overcast clouds
142,San Patricio,US,28.02,-97.52,76.98,87,100,13.6,overcast clouds
143,Ca Mau,VN,9.18,105.15,72.79,79,100,8.63,overcast clouds
144,Codrington,AU,-38.27,141.97,77.23,32,100,11.3,overcast clouds
145,Nabire,ID,-3.37,135.48,87.51,61,100,6.29,overcast clouds
146,Quelimane,MZ,-17.88,36.89,80.55,83,0,11.5,clear sky
147,Bubaque,GW,11.28,-15.83,81.34,67,84,10.89,broken clouds
148,Saint-Joseph,RE,-21.37,55.62,75.56,77,18,11.03,few clouds
149,Jamestown,US,42.10,-79.24,45.99,51,100,11.99,overcast clouds
150,Nelson Bay,AU,-32.72,152.15,74.28,64,100,9.26,overcast clouds
151,Grand Gaube,MU,-20.01,57.66,77.4,72,77,5.01,broken clouds
152,Ulaanbaatar,MN,47.91,106.88,11.75,76,8,5.39,clear sky
153,Vanimo,PG,-2.67,141.30,86.41,66,76,2.75,broken clouds
154,Vila Franca Do Campo,PT,37.72,-25.43,63.19,84,30,2.86,scattered clouds
155,Itarema,BR,-2.92,-39.92,81.14,81,8,16.67,clear sky
156,Dire Dawa,ET,9.59,41.87,62.15,59,0,2.53,clear sky
157,Kruisfontein,ZA,-34.00,24.73,61.88,94,47,12.15,scattered clouds
158,Peniche,PT,39.36,-9.38,54.28,73,18,16.71,few clouds
159,Kutum,SD,14.20,24.67,61.32,23,0,5.82,clear sky
160,Khatanga,RU,71.97,102.50,-17.64,99,100,6.53,overcast clouds
161,Emerald,AU,-23.53,148.17,81.34,65,90,10.36,moderate rain
162,Faanui,PF,-16.48,-151.75,81.34,67,6,13.82,clear sky
163,Jasper,US,37.20,-94.35,67.53,72,40,10.36,scattered clouds
164,Bethel,US,41.37,-73.41,44.55,60,90,1.01,overcast clouds
165,Yenagoa,NG,4.92,6.26,77.47,91,100,3.53,overcast clouds
166,Bambanglipuro,ID,-7.95,110.28,68.61,81,99,2.75,overcast clouds
167,College,US,64.86,-147.80,11.89,78,90,0.0,overcast clouds
168,Ponta Do Sol,PT,32.67,-17.10,65.03,67,6,9.53,clear sky
169,Shimoda,JP,34.67,138.95,55.51,81,100,16.58,overcast clouds
170,Zhanaozen,KZ,43.30,52.80,36.34,68,43,9.98,scattered clouds
171,Ugoofaaru,MV,5.67,73.00,82.24,72,6,9.35,clear sky
172,Broome,US,42.25,-75.83,42.82,56,90,3.0,overcast clouds
173,Yulara,AU,-25.24,130.99,78.64,44,0,14.97,clear sky
174,Hue,VN,16.47,107.60,66.31,77,75,6.91,broken clouds
175,Wanning,CN,18.80,110.40,67.46,59,100,11.14,overcast clouds
176,Nadym,RU,65.53,72.52,-24.68,99,6,8.72,clear sky
177,Flinders,AU,-34.58,150.86,72.18,66,100,6.53,light rain
178,Hilo,US,19.73,-155.09,73.13,96,90,6.91,mist
179,Mirabad,AF,30.44,61.84,51.21,50,27,6.42,scattered clouds
180,Kieta,PG,-6.22,155.63,83.89,73,100,2.73,light rain
181,Amalapuram,IN,16.58,82.02,77.38,96,16,3.47,few clouds
182,Chara,RU,56.91,118.26,1.15,79,99,2.86,overcast clouds
183,Sao Filipe,CV,14.90,-24.50,75.29,74,14,10.56,few clouds
184,Eureka,US,40.80,-124.16,52.41,82,97,5.19,overcast clouds
185,Kamina,CD,-8.74,24.99,62.26,97,100,2.46,light rain
186,La Ronge,CA,55.10,-105.28,-12.75,77,1,4.61,clear sky
187,Santa Cruz,BO,-17.80,-63.17,78.26,78,75,6.91,broken clouds
188,Souillac,MU,-20.52,57.52,77.38,78,40,6.91,scattered clouds
189,La Asuncion,VE,11.03,-63.86,80.33,83,59,17.27,broken clouds
190,Venado Tuerto,AR,-33.75,-61.97,65.77,72,0,4.68,clear sky
191,Krasnoarmeysk,RU,51.02,45.70,23.29,86,100,10.94,overcast clouds
192,Nome,US,64.50,-165.41,31.15,93,90,28.77,snow
193,Jiangyou,CN,31.77,104.72,51.28,63,86,3.98,overcast clouds
194,Kyshtovka,RU,56.55,76.63,27.9,95,100,9.51,overcast clouds
195,Charlestown,AU,-32.95,151.67,73.22,62,100,3.0,overcast clouds
196,Puerto Escondido,MX,15.85,-97.07,83.23,65,20,5.75,few clouds
197,Vila Do Maio,CV,15.13,-23.22,72.39,77,48,17.58,scattered clouds
198,Walvis Bay,NA,-22.96,14.51,58.15,82,0,2.3,clear sky
199,Sindou,BF,10.67,-5.17,75.99,15,0,5.95,clear sky
200,Atikokan,CA,48.76,-91.62,23.05,95,100,10.25,snow
201,Saldanha,ZA,-33.01,17.94,60.85,90,100,16.46,overcast clouds
202,Esperance,AU,-33.87,121.90,67.84,67,98,12.91,overcast clouds
203,Mar Del Plata,AR,-38.00,-57.56,63.88,80,0,15.01,clear sky
204,Kargasok,RU,59.06,80.86,29.97,97,100,9.08,light snow
205,Okha,RU,53.57,142.95,15.1,88,62,6.96,broken clouds
206,Killybegs,IE,54.63,-8.45,42.73,87,100,21.81,light rain
207,Zhangye,CN,38.93,100.45,30.45,36,0,5.39,clear sky
208,Cabo San Lucas,MX,22.89,-109.91,79.11,60,40,5.75,scattered clouds
209,Lebu,CL,-37.62,-73.65,56.82,85,0,12.97,clear sky
210,Caramay,PH,10.18,119.24,81.91,69,19,12.77,few clouds
211,North Myrtle Beach,US,33.82,-78.68,61.11,93,90,3.44,overcast clouds
212,Goryachegorsk,RU,55.41,88.92,29.35,80,100,9.89,overcast clouds
213,Kerman,IR,30.28,57.08,52.43,16,40,1.48,scattered clouds
214,Ahmadpur East,PK,29.14,71.26,59.86,28,0,7.54,clear sky
215,Honiara,SB,-9.43,159.95,82.9,82,100,8.81,overcast clouds
216,Soe,ID,-9.86,124.28,78.53,65,100,2.77,overcast clouds
217,Clovis,US,36.83,-119.70,64.69,90,90,3.44,mist
218,Namibe,AO,-15.20,12.15,71.71,64,12,3.96,few clouds
219,San Cristobal,VE,7.77,-72.22,75.38,82,100,1.79,overcast clouds
220,Srednekolymsk,RU,67.45,153.68,-48.23,99,86,4.83,overcast clouds
221,Freeport,US,40.66,-73.58,47.32,56,90,7.0,overcast clouds
222,Camacha,PT,33.08,-16.33,61.56,67,75,14.97,broken clouds
223,Manjacaze,MZ,-24.71,33.88,76.39,67,98,7.76,overcast clouds
224,Porto Velho,BR,-8.76,-63.90,78.85,94,40,2.3,moderate rain
225,Novolabinskaya,RU,45.11,39.89,42.15,91,96,2.1,overcast clouds
226,Pevek,RU,69.70,170.31,-9.4,96,100,16.8,light snow
227,Lingao,CN,19.91,109.69,67.77,48,38,13.06,scattered clouds
228,Lufilufi,WS,-13.87,-171.60,83.79,76,13,11.59,few clouds
229,Garowe,SO,8.41,48.48,66.61,74,5,8.79,clear sky
230,Port Blair,IN,11.67,92.75,79.18,69,56,10.87,broken clouds
231,Nantucket,US,41.28,-70.10,43.14,60,1,5.75,clear sky
232,Umm Lajj,SA,25.02,37.27,72.37,59,99,11.86,overcast clouds
233,Aklavik,CA,68.22,-135.01,-4.97,89,18,9.19,few clouds
234,Horsham,GB,51.06,-0.33,42.26,89,40,8.05,scattered clouds
235,Ubinskoye,RU,55.31,79.68,23.5,93,100,11.03,overcast clouds
236,Bambous Virieux,MU,-20.34,57.76,77.25,78,40,6.91,light rain
237,Voh,NC,-20.97,164.70,86.94,59,65,2.57,broken clouds
238,Kysyl-Syr,RU,63.90,122.76,-33.05,97,25,5.17,scattered clouds
239,Hithadhoo,MV,-0.60,73.08,81.14,79,100,11.48,overcast clouds
240,Luderitz,NA,-26.65,15.16,60.28,85,0,9.37,clear sky
241,Florida,US,28.75,-82.50,68.02,87,100,5.12,overcast clouds
242,Yerbogachen,RU,61.28,108.01,-26.45,100,72,2.3,broken clouds
243,Hirara,JP,24.80,125.28,71.87,60,20,11.5,few clouds
244,Avera,US,33.19,-82.53,62.26,75,34,6.15,scattered clouds
245,Narsaq,GL,60.92,-46.05,25.02,75,72,9.08,broken clouds
246,Pringsewu,ID,-5.36,104.97,76.57,90,99,1.95,overcast clouds
247,Makakilo City,US,21.35,-158.09,75.52,74,90,6.91,light rain
248,Belleville,CA,44.18,-77.37,36.81,84,90,3.0,snow
249,Pochutla,MX,15.74,-96.47,82.22,80,0,2.51,clear sky
250,Hay River,CA,60.82,-115.80,-16.62,69,1,5.75,clear sky
251,Maneromango,TZ,-7.20,38.78,69.55,98,98,1.34,overcast clouds
252,Shelton,US,41.32,-73.09,46.02,59,75,1.01,broken clouds
253,Hasaki,JP,35.73,140.83,48.6,60,100,12.21,overcast clouds
254,Agadez,NE,19.75,10.25,59.79,23,1,5.35,clear sky
255,Jurm,AF,36.86,70.83,39.67,68,87,3.91,overcast clouds
256,Osa,RU,57.28,55.46,6.53,83,78,7.11,broken clouds
257,Palu,ID,-0.89,119.87,86.41,62,96,3.36,overcast clouds
258,Geeste,DE,52.60,7.27,39.99,100,100,4.61,overcast clouds
259,Cockburn Town,TC,21.46,-71.14,80.44,78,13,21.43,few clouds
260,Bonavista,CA,48.65,-53.11,33.12,61,81,21.47,broken clouds
261,Alvaraes,BR,-3.22,-64.80,74.43,96,91,2.26,moderate rain
262,Kolda,SN,12.88,-14.95,68.31,88,85,0.0,overcast clouds
263,Torbay,CA,47.67,-52.73,32.88,91,90,11.5,light shower snow
264,Filadelfia,US,39.95,-75.16,47.26,68,75,1.01,broken clouds
265,Sawakin,SD,19.11,37.33,81.01,67,14,8.01,few clouds
266,Santa Maria,BR,-29.68,-53.81,74.5,73,20,11.5,few clouds
267,Antalaha,MG,-14.90,50.28,73.47,87,15,5.77,light rain
268,Brattvag,NO,62.60,6.44,36.84,69,20,13.8,few clouds
269,Bandarbeyla,SO,9.49,50.81,75.16,68,4,12.86,clear sky
270,Yinchuan,CN,38.47,106.27,28.81,37,57,5.91,broken clouds
271,Smithfield,US,41.92,-71.55,39.94,71,1,3.44,clear sky
272,Muisne,EC,0.60,-80.03,74.53,85,100,8.95,overcast clouds
273,Paracuru,BR,-3.41,-39.03,83.1,80,84,15.23,broken clouds
274,Linxia,CN,35.60,103.21,27.57,60,4,2.17,clear sky
275,Kavaratti,IN,10.57,72.64,80.71,70,94,12.73,overcast clouds
276,Esso,RU,55.93,158.70,11.07,84,28,10.07,scattered clouds
277,Kloulklubed,PW,7.04,134.26,84.7,77,100,14.99,overcast clouds
278,Ucluelet,CA,48.93,-125.55,41.09,78,100,1.01,overcast clouds
279,Lompoc,US,34.64,-120.46,68.68,80,1,10.36,clear sky
280,Lorengau,PG,-2.02,147.27,86.47,72,97,17.34,moderate rain
281,Alice Springs,AU,-23.70,133.88,80.15,41,0,10.36,clear sky
282,Saint Anthony,US,45.02,-93.22,35.92,67,90,5.01,overcast clouds
283,Erzin,TR,36.96,36.20,46.92,46,0,4.27,clear sky
284,Marawi,PH,8.00,124.29,68.65,83,81,4.43,broken clouds
285,Muros,ES,42.78,-9.06,53.24,94,57,2.28,broken clouds
286,Ahipara,NZ,-35.17,173.17,75.25,63,92,10.76,overcast clouds
287,Cabedelo,BR,-6.98,-34.83,81.27,77,78,16.71,broken clouds
288,Magadan,RU,59.57,150.80,-4.63,89,19,6.8,few clouds
289,Yatou,CN,37.15,122.38,50.47,75,100,6.98,overcast clouds
290,Sabana De Torres,CO,7.39,-73.50,83.01,92,100,3.49,overcast clouds
291,Cap Malheureux,MU,-19.98,57.61,77.49,72,86,3.0,overcast clouds
292,Nuuk,GL,64.18,-51.72,25.88,80,75,21.85,light shower snow
293,Homer,US,59.64,-151.55,35.47,93,90,5.75,light rain
294,Lardos,GR,36.09,28.02,59.95,78,37,2.39,scattered clouds
295,Trairi,BR,-3.28,-39.27,81.37,79,84,13.0,broken clouds
296,Shubarshi,KZ,48.59,57.19,30.45,75,100,7.81,overcast clouds
297,Swan River,CA,52.11,-101.27,-0.51,65,92,6.91,overcast clouds
298,Apatity,RU,67.56,33.40,-1.35,97,100,4.56,overcast clouds
299,Tazovskiy,RU,67.47,78.70,-12.6,88,100,15.39,overcast clouds
300,Bushehr,IR,28.97,50.84,66.85,49,38,7.16,scattered clouds
301,Havoysund,NO,71.00,24.66,29.28,96,100,33.15,light snow
302,Paramonga,PE,-10.67,-77.83,66.29,87,100,8.68,overcast clouds
303,Shieli,KZ,44.17,66.75,39.27,74,100,3.8,overcast clouds
304,Slave Lake,CA,55.28,-114.77,-2.22,65,1,4.61,clear sky
305,Griffith,US,41.53,-87.42,46.4,96,90,3.44,overcast clouds
306,Buala,SB,-8.14,159.59,78.84,88,100,19.22,light rain
307,Dicabisagan,PH,17.08,122.42,74.57,83,81,5.3,broken clouds
308,Kuryk,KZ,43.20,51.65,41.56,66,98,7.56,overcast clouds
309,Bayan,CN,46.08,127.40,19.22,89,14,6.87,few clouds
310,Andenes,NO,69.31,16.12,21.18,79,90,14.97,overcast clouds
311,Coihaique,CL,-45.58,-72.07,62.55,59,40,0.0,scattered clouds
312,Kotido,UG,2.98,34.13,69.58,61,83,8.61,broken clouds
313,North Bend,US,43.41,-124.22,51.71,90,1,3.44,clear sky
314,Dingle,PH,11.00,122.67,79.43,76,48,12.41,scattered clouds
315,Sobolevo,RU,54.43,31.90,23.36,97,100,5.3,overcast clouds
316,Syedove,UA,47.08,38.16,37.0,84,100,0.43,overcast clouds
317,Paita,PE,-5.09,-81.11,66.72,84,100,14.34,overcast clouds
318,Tautira,PF,-17.73,-149.15,86.02,73,99,17.9,overcast clouds
319,Mount Isa,AU,-20.73,139.50,82.17,51,89,14.97,overcast clouds
320,Sabang,ID,5.89,95.32,81.41,74,77,15.28,broken clouds
321,Sibolga,ID,1.74,98.78,78.69,79,71,1.36,broken clouds
322,San Vicente,AR,-26.62,-54.13,71.47,60,28,2.66,scattered clouds
323,Kimbe,PG,-5.55,150.14,89.74,59,100,4.92,overcast clouds
324,Opuwo,NA,-18.06,13.84,66.54,25,5,3.69,clear sky
325,Kirensk,RU,57.79,108.11,20.23,96,100,4.41,light snow
326,Sao Jose Da Coroa Grande,BR,-8.90,-35.15,78.04,84,22,10.94,few clouds
327,Lincoln,US,40.80,-96.67,47.64,36,1,5.01,clear sky
328,Porosozero,RU,62.72,32.73,11.28,93,56,7.18,broken clouds
329,Bilibino,RU,68.05,166.44,-18.58,99,100,2.75,light snow
330,Cape Coast,GH,5.11,-1.25,80.06,85,10,8.46,clear sky
331,Pangnirtung,CA,66.15,-65.71,4.64,98,100,6.69,light snow
332,Mount Gambier,AU,-37.83,140.77,75.11,31,27,10.36,scattered clouds
333,Grand-Santi,GF,4.25,-54.38,73.17,99,100,2.37,overcast clouds
334,Marsa Matruh,EG,31.35,27.25,61.0,82,40,9.22,scattered clouds
335,Three Hills,CA,51.70,-113.27,3.18,77,72,3.44,broken clouds
336,Iberia,US,29.95,-91.75,69.87,88,1,6.91,clear sky
337,Longyan,CN,25.11,117.02,56.82,62,0,3.8,clear sky
338,Chabahar,IR,25.29,60.64,71.91,43,6,3.18,clear sky
339,Tanout,NE,14.97,8.89,65.46,18,4,10.25,clear sky
340,Esmeraldas,BR,-19.76,-44.31,75.51,85,12,4.21,few clouds
341,Impfondo,CG,1.64,18.07,71.69,92,100,1.66,overcast clouds
342,Tortoli,IT,39.93,9.66,45.99,70,20,18.41,light rain
343,Fort Nelson,CA,58.81,-122.70,-18.81,76,20,3.44,few clouds
344,Manokwari,ID,-0.87,134.08,84.11,71,86,3.18,overcast clouds
345,Dubbo,AU,-32.25,148.62,57.33,94,90,12.66,light rain
346,Banda Aceh,ID,5.56,95.32,78.33,82,93,9.51,overcast clouds
347,Paducah,US,37.08,-88.60,66.45,89,90,6.91,overcast clouds
348,Troitskoye,RU,52.98,84.68,17.65,91,99,4.25,overcast clouds
349,Bowen,AU,-20.02,148.23,84.42,60,6,16.35,clear sky
350,Kununurra,AU,-15.77,128.73,78.78,83,75,9.22,light rain
351,Qurayyat,SA,31.33,37.34,46.58,66,0,11.5,clear sky
352,Ayagoz,KZ,47.97,80.44,14.92,89,82,1.74,broken clouds
353,Okhotsk,RU,59.38,143.30,-8.48,88,18,13.0,few clouds
354,Ngunguru,NZ,-35.62,174.50,77.16,79,27,13.33,scattered clouds
355,Palmer,US,42.16,-72.33,38.46,67,75,5.75,broken clouds
356,Nyurba,RU,63.28,118.33,-30.8,96,73,5.12,broken clouds
357,Videira,BR,-27.01,-51.15,62.22,98,48,2.17,scattered clouds
358,Anzio,IT,41.49,12.62,48.45,88,61,1.01,broken clouds
359,Huron,US,41.15,-82.55,52.79,74,100,24.96,overcast clouds
360,Turukhansk,RU,65.82,87.98,-36.27,99,19,4.43,few clouds
361,Inirida,CO,3.87,-67.92,74.48,95,93,1.59,overcast clouds
362,Vestmannaeyjar,IS,63.44,-20.27,43.47,69,62,22.97,broken clouds
363,Vrede,ZA,-27.43,29.17,55.65,99,98,4.03,light rain
364,Konstantinovka,RU,49.62,127.98,6.98,95,42,3.94,scattered clouds
365,Syasstroy,RU,60.14,32.57,-1.07,95,6,6.67,clear sky
366,Sokolo,ML,14.73,-6.12,72.41,16,12,10.89,few clouds
367,Kandrian,PG,-6.22,149.55,86.45,65,99,7.11,overcast clouds
368,Sao Joao Da Barra,BR,-21.64,-41.05,75.2,87,90,14.72,overcast clouds
369,Rovinj,HR,45.08,13.64,45.19,75,78,5.7,broken clouds
370,Yumen,CN,40.28,97.20,22.62,55,11,1.86,few clouds
371,Ambilobe,MG,-13.20,49.05,73.99,76,7,3.29,clear sky
372,Bodden Town,KY,19.28,-81.25,80.92,89,20,3.0,few clouds
373,Arman,RU,59.70,150.17,-10.3,88,5,4.65,clear sky
374,Tuatapere,NZ,-46.13,167.68,55.81,49,70,8.75,broken clouds
375,Finnsnes,NO,69.23,17.98,17.56,85,3,4.27,clear sky
376,Gisborne,NZ,-38.65,178.00,76.95,64,76,7.34,broken clouds
377,Lukovetskiy,RU,64.30,41.92,-0.42,95,5,3.27,clear sky
378,Karasuk,RU,53.74,78.04,17.83,92,63,6.78,broken clouds
379,Richards Bay,ZA,-28.78,32.04,77.23,70,100,14.14,overcast clouds
380,Plettenberg Bay,ZA,-34.05,23.37,64.04,92,98,10.94,light rain
381,Kaihua,CN,23.37,104.28,51.44,84,4,1.74,clear sky
382,Sai Buri,TH,6.70,101.62,75.96,72,100,3.33,overcast clouds
383,Doha,QA,25.29,51.53,64.38,72,0,3.44,clear sky
384,Manzanillo,CU,20.34,-77.12,78.37,74,100,2.35,overcast clouds
385,Kars,TR,40.60,43.09,14.45,85,0,4.61,clear sky
386,Ust-Karsk,RU,52.70,118.81,4.12,92,16,4.14,few clouds
387,Bonthe,SL,7.53,-12.51,79.97,82,34,6.78,scattered clouds
388,Belsand,IN,26.45,85.40,66.27,72,0,3.06,clear sky
389,Voyvozh,RU,62.89,54.96,-17.57,96,18,2.37,few clouds
390,Xacmaz,AZ,41.46,48.81,46.18,75,8,7.99,clear sky
391,Wuda,CN,39.50,106.71,27.07,40,3,7.99,clear sky
392,Mafra,BR,-26.11,-49.81,64.96,99,76,4.0,broken clouds
393,Leh,IN,34.17,77.58,17.94,89,80,4.34,broken clouds
394,Ibra,OM,22.69,58.53,62.83,75,0,3.65,clear sky
395,Lianran,CN,24.92,102.48,46.94,88,90,2.28,overcast clouds
396,Rawson,AR,-43.30,-65.10,62.73,66,4,12.35,clear sky
397,Plombieres,BE,50.73,5.95,39.47,81,96,2.26,overcast clouds
398,Kulhudhuffushi,MV,6.62,73.07,81.57,75,18,8.03,few clouds
399,Verkhoyansk,RU,67.54,133.38,-21.24,100,100,0.63,overcast clouds
400,Saint George,US,37.10,-113.58,63.07,30,1,1.01,clear sky
401,Dillon,US,34.42,-79.37,60.78,85,97,5.39,overcast clouds
402,Leningradskiy,RU,69.38,178.42,-2.27,98,100,19.13,light snow
403,Seybaplaya,MX,19.65,-90.67,76.46,75,0,11.05,clear sky
404,Capreol,CA,46.71,-80.92,20.55,88,90,3.0,snow
405,Nago,JP,26.59,127.98,71.67,68,5,16.22,clear sky
406,Ekhabi,RU,53.51,142.97,15.17,89,75,6.51,broken clouds
407,La Rioja,ES,42.25,-2.50,36.48,97,100,12.55,overcast clouds
408,Xining,CN,36.62,101.77,25.18,40,35,0.58,scattered clouds
409,Sturgeon Falls,CA,46.36,-79.93,27.09,91,100,15.32,snow
410,Pimentel,PE,-6.84,-79.93,66.52,83,100,12.53,overcast clouds
411,Koslan,RU,63.46,48.90,3.92,98,23,4.54,few clouds
412,Whitehorse,CA,60.72,-135.05,-8.63,76,20,13.0,few clouds
413,Ust-Maya,RU,60.42,134.53,-16.04,99,50,2.91,scattered clouds
414,Clearwater,US,27.97,-82.80,71.58,80,40,8.01,scattered clouds
415,Madimba,TZ,-10.40,40.33,77.5,87,100,6.42,light rain
416,Atar,MR,20.52,-13.05,67.41,14,100,7.76,overcast clouds
417,Staryy Nadym,RU,65.61,72.68,-25.51,99,6,8.28,clear sky
418,Constitucion,CL,-35.33,-72.42,56.82,91,6,6.29,clear sky
419,Quatre Cocos,MU,-20.21,57.76,77.11,75,14,12.21,light rain
420,Marsh Harbour,BS,26.54,-77.06,77.25,75,22,15.59,few clouds
421,Westport,US,41.14,-73.36,46.74,63,75,1.01,broken clouds
422,Kapit,MY,2.02,112.93,75.79,97,99,1.28,overcast clouds
423,Sterling,US,39.01,-77.43,49.26,52,75,5.01,broken clouds
424,Sulangan,PH,11.14,123.72,81.25,73,39,18.92,scattered clouds
425,Taoudenni,ML,22.68,-3.98,59.99,24,100,10.2,overcast clouds
426,Faya,SA,18.39,42.45,53.71,69,0,1.68,clear sky
427,Bagdarin,RU,54.43,113.60,-0.89,95,17,3.49,few clouds
428,Aripuana,BR,-9.17,-60.63,73.81,92,100,0.89,overcast clouds
429,Ust-Kulom,RU,61.69,53.69,-22.86,99,5,3.89,clear sky
430,Annau,TM,37.89,58.52,33.3,100,100,4.61,fog
431,Inta,RU,66.03,60.17,1.04,96,100,12.73,overcast clouds
432,Sangar,RU,63.92,127.47,-33.2,99,84,3.42,broken clouds
433,Laguna,US,38.42,-121.42,60.64,85,75,4.61,broken clouds
434,Gushikawa,JP,26.35,127.87,70.83,64,20,13.8,few clouds
435,Denpasar,ID,-8.65,115.22,76.71,94,75,24.16,thunderstorm with rain
436,Olafsvik,IS,64.89,-23.71,41.81,87,100,17.56,moderate rain
437,Havre-Saint-Pierre,CA,50.23,-63.60,23.0,57,1,16.11,clear sky
438,Zhangjiakou,CN,40.81,114.88,25.95,56,1,5.88,clear sky
439,Los Llanos De Aridane,ES,28.66,-17.92,64.15,63,40,18.99,scattered clouds
440,Saint-Pierre,RE,-21.34,55.48,76.64,70,0,4.61,clear sky
441,Jalu,LY,29.03,21.55,55.4,63,2,6.96,clear sky
442,Batagay-Alyta,RU,67.80,130.41,-20.43,98,100,2.73,overcast clouds
443,Longhua,CN,23.61,114.19,59.09,37,99,3.04,overcast clouds
444,Toktogul,KG,41.87,72.94,36.97,58,95,2.26,overcast clouds
445,Oranjemund,NA,-28.55,16.43,61.25,91,13,6.62,few clouds
446,Entre Rios,BR,-11.94,-38.08,70.79,97,6,2.39,clear sky
447,Ongandjera,NA,-17.88,15.07,73.36,25,0,8.59,clear sky
448,Libertad,PH,8.94,125.50,79.27,87,84,7.4,broken clouds
449,Sena Madureira,BR,-9.07,-68.66,73.27,98,100,2.04,heavy intensity rain
450,Zhigansk,RU,66.77,123.37,-27.35,97,100,7.43,overcast clouds
451,Ust-Nera,RU,64.57,143.20,-22.49,98,100,5.35,light snow
452,Lac Du Bonnet,CA,50.25,-96.06,10.33,91,100,13.78,light snow
453,Ustupo,PA,9.13,-77.93,79.36,91,100,3.42,overcast clouds
454,Lagos,NG,6.58,3.75,82.72,86,57,4.45,broken clouds
455,Praia,CV,14.92,-23.51,72.14,83,0,19.57,clear sky
456,Soligalich,RU,59.08,42.29,-4.54,99,42,2.73,scattered clouds
457,Jinchang,CN,38.50,102.17,27.39,46,0,5.17,clear sky
458,Saint-Georges,GD,12.06,-61.75,80.28,78,20,17.27,few clouds
459,Paysandu,UY,-32.32,-58.08,69.33,63,45,11.72,scattered clouds
460,Khandyga,RU,62.67,135.60,-11.87,97,100,5.55,overcast clouds
461,Alofi,NU,-19.06,-169.92,82.29,69,100,18.41,light rain
462,Isangel,VU,-19.55,169.27,87.91,66,40,5.75,scattered clouds
463,Tsogni,GA,-2.79,10.10,75.74,93,100,5.19,heavy intensity rain
464,Chicama,PE,-7.84,-79.15,63.14,78,100,6.11,overcast clouds
465,Mirante Do Paranapanema,BR,-22.29,-51.91,82.33,38,2,3.98,clear sky
466,Uthal,PK,25.81,66.62,67.21,37,0,4.92,clear sky
467,San Ignacio,BZ,17.16,-89.07,82.54,65,0,4.61,clear sky
468,Udachnyy,RU,66.42,112.40,-34.17,99,61,5.73,broken clouds
469,Olinda,BR,-8.01,-34.86,82.13,74,40,9.22,scattered clouds
470,Zakharovo,RU,54.37,39.28,25.68,83,100,4.47,overcast clouds
471,Alyangula,AU,-13.85,136.42,87.67,79,40,5.75,scattered clouds
472,Klyuchi,RU,52.27,79.17,25.86,84,100,8.93,overcast clouds
473,Mayo,US,38.89,-76.51,51.26,72,90,0.0,overcast clouds
474,Kenai,US,60.55,-151.26,21.15,87,90,5.75,light snow
475,Viking,CA,53.10,-111.77,-5.84,95,6,6.8,clear sky
476,Mbulu,TZ,-3.85,35.53,58.1,88,100,10.42,overcast clouds
477,Salvador,SV,13.83,-88.92,82.44,63,93,1.23,overcast clouds
478,Mawlaik,MM,23.63,94.42,68.05,99,100,1.9,light rain
479,Conversion,PH,15.90,121.13,75.94,66,59,4.61,broken clouds
480,Kalmunai,LK,7.42,81.82,77.25,85,2,2.26,clear sky
481,Nassau,US,40.75,-73.58,46.99,57,90,1.99,overcast clouds
482,Kurri Kurri,AU,-32.82,151.48,71.78,62,100,5.64,overcast clouds
483,Hambantota,LK,6.12,81.12,73.74,100,40,2.3,scattered clouds
484,Nizwa,OM,22.93,57.53,61.34,68,0,1.88,clear sky
485,Aitape,PG,-3.14,142.35,86.65,69,44,3.49,scattered clouds
486,Oussouye,SN,12.48,-16.55,73.49,60,53,4.05,broken clouds
487,Maltahohe,NA,-24.83,16.98,56.37,55,0,7.83,clear sky
488,Henderson,US,36.04,-114.98,76.44,14,1,4.61,clear sky
489,Acarau,BR,-2.89,-40.12,81.27,81,26,17.27,scattered clouds
490,Golfito,CR,8.64,-83.17,75.4,94,26,1.14,scattered clouds
491,Launceston,AU,-41.45,147.17,65.84,64,90,7.0,overcast clouds
492,Adrar,MR,20.50,-10.07,60.53,14,100,10.18,overcast clouds
493,Almaznyy,RU,48.04,40.05,33.94,94,100,2.19,overcast clouds
494,Touros,BR,-5.20,-35.46,81.5,78,38,15.19,scattered clouds
495,Cururupu,BR,-1.83,-44.87,76.98,90,14,3.58,few clouds
496,Acapulco,MX,16.86,-99.89,82.22,78,1,8.05,clear sky
497,Dawei,MM,14.08,98.20,68.11,60,33,5.35,scattered clouds
498,Irtyshskiy,RU,58.33,68.13,3.31,92,100,3.18,overcast clouds
499,Tura,IN,25.52,90.22,65.39,85,100,3.2,overcast clouds
500,Baloda Bazar,IN,21.67,82.17,65.23,80,54,4.0,broken clouds
501,Maceio,BR,-9.67,-35.74,78.24,88,75,3.44,broken clouds
502,Pangkalanbuun,ID,-2.68,111.62,77.92,89,99,4.25,overcast clouds
503,Sorsk,RU,54.00,90.25,18.73,90,100,3.83,overcast clouds
504,Virden,US,39.50,-89.77,53.85,91,95,8.23,overcast clouds
505,Nioro,GM,13.35,-15.75,77.2,19,94,4.7,overcast clouds
506,Brainerd,US,46.36,-94.20,29.98,86,90,13.8,light snow
507,Pauini,BR,-7.71,-66.98,73.78,98,100,1.74,overcast clouds
508,Iskateley,RU,67.68,53.15,19.08,87,100,18.39,overcast clouds
509,Genhe,CN,50.78,121.52,3.85,96,90,3.65,overcast clouds
510,Petropavlovsk-Kamchatskiy,RU,53.05,158.65,30.79,51,75,11.18,broken clouds
511,Takoradi,GH,4.88,-1.76,80.28,83,61,7.72,broken clouds
512,Nanortalik,GL,60.14,-45.24,26.51,67,100,31.27,light snow
513,Varhaug,NO,58.61,5.65,28.89,64,68,23.13,broken clouds
514,Gorom-Gorom,BF,14.44,-0.24,74.7,13,12,6.11,few clouds
515,Mingshui,CN,36.72,117.50,42.78,61,30,4.83,scattered clouds
516,Ishikari,JP,43.24,141.35,43.27,80,40,6.91,scattered clouds
517,Kontagora,NG,10.40,5.47,72.73,28,97,3.42,overcast clouds
518,Novoagansk,RU,61.94,76.66,-3.14,98,85,6.53,overcast clouds
519,Muravlenko,RU,63.79,74.52,-18.89,93,99,6.22,overcast clouds
520,Vredendal,ZA,-31.67,18.50,60.62,93,14,4.43,few clouds
521,Shingu,JP,33.73,135.98,58.19,82,100,1.81,overcast clouds
522,Wagrowiec,PL,52.81,17.20,33.33,94,100,11.59,overcast clouds
523,Kirakira,SB,-10.45,161.92,80.13,89,95,16.24,overcast clouds
524,Saint-Augustin,CA,51.23,-58.65,20.73,67,10,9.4,clear sky
525,Hofn,IS,64.25,-15.21,41.94,97,100,28.92,light rain
526,Santiago,CL,-33.46,-70.65,81.0,31,0,0.0,clear sky
527,Sept-Iles,CA,50.20,-66.38,12.72,62,1,6.91,clear sky
528,Prado,BR,-17.34,-39.22,74.71,88,0,6.2,clear sky
529,Ferrol,ES,43.48,-8.24,53.28,84,100,9.95,overcast clouds
530,Ararangua,BR,-28.93,-49.49,71.87,94,100,7.7,overcast clouds
531,George,ZA,-33.96,22.46,62.51,90,95,9.8,light rain
532,Puerto Cabezas,NI,14.04,-83.39,76.44,92,2,7.72,clear sky
533,Samarinda,ID,-0.50,117.15,76.98,93,100,2.13,overcast clouds
534,Port Hedland,AU,-20.32,118.57,104.05,12,35,14.97,scattered clouds
535,Jackson,US,42.42,-122.83,52.84,100,90,0.0,mist
536,Vilhena,BR,-12.74,-60.15,70.36,98,100,1.43,overcast clouds
537,Urumqi,CN,43.80,87.60,20.35,68,77,4.47,smoke
538,Bat Khela,PK,34.62,71.97,50.72,67,29,4.74,scattered clouds
539,Alamosa,US,37.47,-105.87,42.78,24,1,8.05,clear sky
540,Saint-Leu,RE,-21.15,55.28,76.03,78,16,1.88,few clouds
541,Nador,MA,35.17,-2.93,59.25,63,40,18.41,scattered clouds
542,Sembe,CG,1.65,14.58,73.11,82,100,1.39,overcast clouds
543,Moyale,KE,3.52,39.06,66.04,60,12,8.43,few clouds
544,Kosa,RU,59.94,55.00,-11.6,100,64,3.83,broken clouds
545,Kuhdasht,IR,33.53,47.61,46.54,35,67,6.53,broken clouds
546,Evensk,RU,61.95,159.23,-13.32,80,17,6.64,few clouds
547,Lata,PT,40.16,-8.33,52.81,95,26,0.94,scattered clouds
548,Kavieng,PG,-2.57,150.80,83.5,75,86,7.25,light rain
549,Tateyama,JP,34.98,139.87,52.07,76,100,11.01,overcast clouds
550,Georgiyevka,KZ,43.04,74.71,39.24,87,90,2.24,mist
551,Batouri,CM,4.43,14.37,70.66,61,100,0.72,overcast clouds
552,Raudeberg,NO,61.99,5.14,36.19,82,100,1.99,overcast clouds
553,Bathsheba,BB,13.22,-59.52,81.21,74,75,21.85,broken clouds
554,Gornorechenskiy,RU,44.26,135.11,32.99,77,6,0.83,clear sky
555,Roald,NO,62.58,6.13,37.33,69,20,13.8,few clouds
556,Melfi,IT,41.00,15.65,42.49,88,100,1.97,overcast clouds
557,Puerto Ayacucho,VE,5.66,-67.62,81.28,70,100,2.28,overcast clouds
558,Vao,NC,-22.67,167.48,75.97,81,100,13.02,overcast clouds
559,Ostrowiec Swietokrzyski,PL,50.93,21.39,34.95,99,100,2.62,overcast clouds
560,Bukachacha,RU,52.98,116.92,3.42,93,92,2.15,overcast clouds
561,Riyadh,SA,24.69,46.72,53.74,34,2,4.07,clear sky
562,Ilulissat,GL,69.22,-51.10,28.42,69,20,10.36,few clouds
563,Palmerston,AU,-12.49,130.98,88.93,72,0,3.44,clear sky
564,Verkhnevilyuysk,RU,63.45,120.32,-30.6,95,86,5.21,overcast clouds
565,Sayyan,YE,15.17,44.32,46.69,30,0,2.62,clear sky
566,Otradnoye,RU,59.78,30.82,-2.43,97,6,4.63,clear sky
567,Dunmore Town,BS,25.50,-76.65,77.86,77,3,17.27,clear sky
568,Kasangulu,CD,-4.59,15.17,76.14,98,100,2.46,light rain
569,Timmins,CA,48.47,-81.33,12.02,85,90,9.22,light snow
570,Vuktyl,RU,63.86,57.31,-10.82,89,61,0.18,broken clouds
571,Skovorodino,RU,53.98,123.92,8.19,91,100,2.75,light snow
572,Mold,GB,53.17,-3.14,38.12,93,100,5.82,overcast clouds
573,Kroya,ID,-7.63,109.25,78.78,85,100,4.12,overcast clouds
574,Kevsala,RU,45.80,42.69,42.48,92,100,5.41,overcast clouds
575,Skelleftea,SE,64.75,20.95,-10.84,84,100,4.61,light snow
576,Orlik,RU,52.52,99.83,-2.56,86,27,2.95,scattered clouds
577,Sinnamary,GF,5.38,-52.95,76.84,89,100,5.66,overcast clouds
578,Coahuayana,MX,18.73,-103.68,75.7,89,100,2.06,overcast clouds
579,Wajir,KE,1.75,40.06,76.64,76,14,10.92,few clouds
580,Vysokogornyy,RU,50.12,139.15,25.07,85,96,12.21,overcast clouds
581,Mount Pleasant,US,32.79,-79.86,60.01,95,75,1.99,mist
582,Vardo,NO,70.37,31.11,22.6,80,61,20.51,broken clouds
583,Tsiroanomandidy,MG,-18.77,46.03,70.03,69,0,3.89,clear sky
584,Thabazimbi,ZA,-24.59,27.41,67.21,89,100,2.3,overcast clouds
585,Kahului,US,20.89,-156.47,73.85,90,90,8.05,moderate rain
586,Sorland,NO,67.67,12.69,26.56,63,6,10.98,clear sky
587,Bereda,ES,43.27,-7.54,48.92,100,100,2.06,overcast clouds
588,Komsomolskiy,UZ,40.43,71.72,36.82,86,31,4.61,mist
589,Ylivieska,FI,64.08,24.55,10.31,98,44,2.86,scattered clouds
590,Asyut,EG,27.18,31.18,53.78,64,87,5.3,overcast clouds
591,Flin Flon,CA,54.77,-101.86,-13.16,70,1,4.61,clear sky
592,Turbat,PK,26.00,63.04,64.13,24,1,8.63,clear sky
593,Vieux Fort,LC,13.72,-60.95,81.72,69,40,24.16,scattered clouds
594,Morondava,MG,-20.28,44.28,78.3,78,17,4.16,few clouds
595,Clyde River,CA,70.47,-68.59,10.63,85,100,29.93,light snow
596,Parana,AR,-31.73,-60.52,78.51,65,5,8.95,clear sky
597,Kisaran,ID,2.98,99.62,76.89,83,100,4.29,overcast clouds
598,Kachug,RU,53.96,105.88,8.24,97,98,1.86,overcast clouds
599,Banepa,NP,27.63,85.52,50.32,100,20,2.3,mist
600,Thomasville,US,35.88,-80.08,55.44,61,100,4.45,overcast clouds
601,Kenora,CA,49.82,-94.43,22.98,86,90,8.05,light snow
602,Cedral,MX,23.80,-100.73,64.72,39,70,4.43,broken clouds
603,High Rock,BS,26.62,-78.28,69.82,69,16,12.66,few clouds
604,Waipawa,NZ,-41.41,175.52,51.46,95,100,7.16,moderate rain
605,Linjiang,CN,41.81,126.91,36.66,94,100,2.73,light rain
606,Ginir,ET,7.13,40.70,52.84,42,14,3.11,few clouds
607,San Borja,BO,-14.82,-66.85,72.52,99,100,2.82,overcast clouds
608,Marzuq,YE,14.40,46.47,58.3,41,0,1.68,clear sky
609,Lyuban,BY,52.80,28.00,29.03,96,100,6.78,light snow
610,Markova,UA,48.68,24.41,28.18,97,100,2.37,overcast clouds
611,The Valley,AI,18.22,-63.06,81.1,70,89,22.06,overcast clouds
612,Port-Cartier,CA,50.03,-66.87,12.42,72,3,10.94,clear sky
613,Morehead,US,37.27,-87.18,65.86,89,90,4.0,overcast clouds
614,Balikpapan,ID,-1.27,116.83,79.79,89,20,8.05,few clouds
615,Sur,OM,22.57,59.53,71.53,72,0,2.13,clear sky
616,Kathu,TH,7.92,98.33,75.02,76,29,14.83,scattered clouds
617,Pristol,RO,44.22,22.71,40.53,87,100,2.95,overcast clouds
618,Coquimbo,CL,-29.95,-71.34,58.73,82,20,6.91,few clouds
619,Eyl,SO,7.98,49.82,73.42,72,3,13.15,clear sky
620,Sydney Mines,CA,46.24,-60.22,30.16,82,90,1.01,light shower snow
621,Sarakhs,IR,36.54,61.16,50.83,38,98,13.33,overcast clouds
622,Coracora,PE,-15.03,-73.78,51.6,74,100,1.48,light rain
623,Concordia,AR,-31.39,-58.02,72.79,55,4,10.6,clear sky
624,Edson,CA,53.58,-116.44,3.34,78,1,3.44,clear sky
625,Belaya Gora,RU,68.53,146.42,-26.34,93,100,1.97,overcast clouds
626,Vangaindrano,MG,-23.35,47.60,75.02,92,25,7.29,light rain
627,Petrovskiy,RU,56.64,40.32,13.53,94,100,6.33,light snow
628,Calatayud,ES,41.35,-1.64,52.38,96,98,7.11,overcast clouds
629,Sesheke,ZM,-17.48,24.30,68.95,78,99,3.15,overcast clouds
630,Ruiz,MX,21.95,-105.15,71.51,78,69,1.5,broken clouds
631,Kungsbacka,SE,57.49,12.08,24.08,86,78,5.99,broken clouds
632,Birin,NP,26.89,88.07,50.7,79,0,4.47,clear sky
633,Ulcinj,ME,41.93,19.22,52.93,89,100,18.9,overcast clouds
634,Khambhat,IN,22.30,72.62,64.76,61,5,8.03,clear sky
635,Hobyo,SO,5.35,48.53,78.49,73,31,15.86,scattered clouds
636,Deogarh,IN,21.53,84.73,67.33,96,99,2.89,overcast clouds
637,Micheweni,TZ,-4.97,39.83,78.78,79,100,4.79,light rain
638,Krasnaya Gora,RU,53.00,31.60,26.51,90,100,7.23,overcast clouds
639,Mae Sai,TH,20.43,99.88,55.44,74,34,1.21,scattered clouds
640,Moose Factory,CA,51.26,-80.61,10.4,79,40,4.61,scattered clouds
641,Williams Lake,CA,52.14,-122.14,17.17,86,90,3.44,overcast clouds
642,Lithgow,AU,-33.48,150.15,60.67,76,100,5.46,overcast clouds
643,Bykovo,RU,55.64,38.08,28.13,93,90,4.47,overcast clouds
644,Aguimes,ES,27.91,-15.45,63.23,68,40,19.57,scattered clouds
645,Gayeri,BF,12.65,0.49,74.73,14,6,7.99,clear sky
646,Ponta Delgada,PT,37.73,-25.67,63.5,59,75,4.61,broken clouds
647,Bull Savanna,JM,17.89,-77.59,75.4,84,0,9.13,clear sky
648,Mokhsogollokh,RU,61.47,128.92,-7.42,89,99,7.34,overcast clouds
649,Elizabeth City,US,36.29,-76.25,59.05,86,75,4.61,broken clouds
650,Cabangahan,PH,9.08,122.95,80.6,73,100,4.79,overcast clouds
651,Anloga,GH,5.79,0.90,82.62,81,67,11.92,broken clouds
652,Los Andes,CL,-32.83,-70.60,77.72,39,39,0.72,scattered clouds
653,Puerto Quijarro,BO,-17.78,-57.77,71.22,99,100,4.03,moderate rain
654,Lazaro Cardenas,MX,17.96,-102.20,77.97,83,86,4.81,overcast clouds
655,Kyra,RU,49.58,111.98,10.08,89,67,3.8,broken clouds
656,Novikovo,RU,51.15,37.89,28.27,64,100,5.61,overcast clouds
657,Sitio Novo Do Tocantins,BR,-5.52,-47.46,73.98,94,74,3.44,broken clouds
658,Comodoro Rivadavia,AR,-45.87,-67.50,69.66,40,0,10.36,clear sky
659,Mandal,IN,25.45,74.57,65.55,56,80,3.44,broken clouds
660,Taksimo,RU,56.34,114.88,5.14,88,100,3.49,overcast clouds
661,Oparino,RU,59.85,48.28,-13.18,97,5,3.29,clear sky
662,High Level,CA,58.52,-117.14,-21.89,76,1,0.0,clear sky
663,Alexandria,EG,31.22,29.96,64.36,68,40,0.0,scattered clouds
664,Vero Beach,US,27.64,-80.40,71.65,90,75,1.01,broken clouds
665,Oranjestad,AW,12.52,-70.03,80.55,83,20,16.11,few clouds
666,Surt,LY,31.21,16.59,55.65,36,0,18.19,clear sky
667,Labrea,BR,-7.26,-64.80,74.37,99,100,1.63,moderate rain
668,Kautokeino,NO,69.01,23.04,-24.54,100,98,4.38,overcast clouds
669,Kholm,RU,59.27,32.85,-1.75,91,16,6.11,few clouds
670,Laharpur,IN,27.72,80.90,63.9,71,93,5.84,overcast clouds
671,Uhlirske Janovice,CZ,49.88,15.06,34.21,89,91,3.42,overcast clouds
672,Diu,IN,20.71,70.98,71.01,61,0,9.6,clear sky
673,Henties Bay,NA,-22.12,14.28,57.85,93,2,8.48,clear sky
674,Batsfjord,NO,70.63,29.72,18.61,85,66,19.82,broken clouds
675,Vytegra,RU,61.01,36.45,-3.5,99,99,4.16,overcast clouds
676,Abha,SA,18.22,42.51,53.42,46,0,0.0,clear sky
677,Mayya,RU,61.73,130.28,-26.28,100,100,3.36,overcast clouds
678,Clarksdale,US,34.20,-90.57,68.92,83,75,5.75,broken clouds
679,Narasannapeta,IN,18.42,84.05,71.38,89,45,5.35,scattered clouds
680,Katima Mulilo,NA,-17.50,24.27,69.04,78,100,3.47,overcast clouds
681,Tarata,BO,-17.62,-66.02,55.67,73,100,8.61,overcast clouds
682,Irbil,IQ,36.19,44.01,50.58,51,37,8.16,scattered clouds
683,Odienne,CI,9.51,-7.57,71.62,27,41,3.44,scattered clouds
